[
        {
            "NO": "001",
            "Category": "台南",
            "Name": "阿嬤的珍藏",
            "Area": "仁德區",
            "Description": "原本家裡種鳳梨的科技業老闆，將自家產的鳳梨製成鳳梨酥，從小車庫開始販賣而誕生了「阿嬤的珍藏」，因真材實料不久就打出名氣，隨後研發出的生巧克力塔更成為團購網第一名，至今已經是熟門熟路的旅人們到台南必買的伴手禮之一。\r\n\r\n店裡最受歡迎的就是「生巧克力塔」了，採用比利時巧克力，72%的苦甜滋味，即使不喜歡甜膩巧克力的朋友也都被他征服，其他像是檸檬塔、夏威夷豆塔也都是人氣商品，甜點外表精緻賣相內在兼具，送禮自用都很有面子！",
            "Address": "台南市仁德區文華路三段428巷111號",
            "Tel": "06-511-5188",
            "Hours": "10:00~18:00",
            "Figure": "fig/TGN-5401-Souvenier-01.jpg",
            "Link": "https://www.a-ma520.com/"
        },
        {
            "NO": "002",
            "Category": "台南",
            "Name": "名東現烤蛋糕",
            "Area": "中西區",
            "Description": "位於民生路的「名東現烤蛋糕」，每次經過總是被他現烤蛋糕的香味以及門口擠到爆的人潮吸引，就算沒有做功課也很難錯過他吧！\r\n\r\n傳統現烤蛋糕前陣子很火紅到處都看得到，但口味、口感總是固定印象，名東的蛋糕不但口味多元包含紅茶、巧克力、蔓越梅、南瓜乳酪等，而且還融入爆漿概念，一口咬下超多料，濕潤紮實的口感一整條蛋糕一下子就剩一半了，每天的出爐的口味都不一樣，想要買限定口味記得要事先查好日期喔。",
            "Address": "台南市中西區民生路二段95號",
            "Tel": "06-222-1199",
            "Hours": "07:00~19:00",
            "Figure": "fig/TGN-5401-Souvenier-02.jpg",
            "Link": "https://www.facebook.com/mingdongcake/"
        },
        {
            "NO": "003",
            "Category": "台南",
            "Name": "紅磚布丁",
            "Area": "安平區",
            "Description": "到訪過台南你會意外發現有蠻多布丁店，包含方蘭川、伊雷特、銀波等，但最吸睛的莫過於把布丁做成磚塊方形的「紅磚布丁」，有布丁界愛馬仕之稱的紅磚布丁，除了台南以外，近期在新北板橋也看得到它的身影。\r\n\r\n有別以往布丁過甜的印象，製作過程採用八分糖的概念，並且使用寒天為布丁基底，每一口口感都很Ｑ彈，就算是怕胖的甜點控也可以安心吃，美味又有飽足感喔！口味部分傳統焦糖、抹茶、黑糖等都很有人氣，不定期還會推出期間限定口味，到台南一定要到安平旗艦門市朝聖一下喔！",
            "Address": "台南市安平區安平路602-1號",
            "Tel": "06-223-8028",
            "Hours": "10:00~21:00（週五延長至21:30，六日為09:30~21:30）",
            "Figure": "fig/TGN-5401-Souvenier-03.jpg",
            "Link": "https://redbrick-pudding.com.tw/?utm_medium=cpa&utm_source=affiliates&utm_term=6f246f56ccbac09dcaef3c1879e5dfe9&vtm_channel=affiliatescomtw&vtm_stat_id=6f246f56ccbac09dcaef3c1879e5dfe9&vtmz=true&gclid=Cj0KCQiAx9mABhD0ARIsAEfpavTIA1HE0jdudYvVDuLxHnOFO5fw_Dx2OMYHx7j1Voqw4PlwKQlD-wUaAko1EALw_wcB"
        },
        {
            "NO": "004",
            "Category": "台南",
            "Name": "堯平布朗尼",
            "Area": "中西區",
            "Description": "布朗尼控看過來！說到布朗尼大家想到的應該就是巧克力口味吧？\r\n\r\n台南這間「堯平布朗尼」專賣店竟然有多達16種口味，而且最特別的是你還可以一次擁有一盒13種口味，對了這間要早點來不然可能會撲空。\r\n\r\n口味部分除了有原味、胡桃、咖啡、莓果、肉桂、甜酒、抹茶、可可薑果、漬櫻桃、棉花糖、以外，還有辛咖哩、芝士橘、塩鹽等出乎意料的口味，吃過的朋友都說他口感很厚實，像是生巧克力般一樣，五顏六色的外表非常精緻，而且入口即可明顯感受到每個口味的差別，難怪常常時間還沒到就會提早完售！",
            "Address": "台南市中西區開山路122巷10號之2號",
            "Tel": "0970-697-800",
            "Hours": "12:00~19:00（六日到18:30，週一公休）",
            "Figure": "fig/TGN-5401-Souvenier-04.jpg",
            "Link": "https://www.yaopingbrownie.com/"
        },
        {
            "NO": "005",
            "Category": "台南",
            "Name": "克林台包",
            "Area": "中西區",
            "Description": "說到肉包應該是台灣人早餐常常吃的選項，台南這家「克林台包」從民國41年營業至今已經有68年的歷史了，從西點麵包起家，其中店裡的招牌就是這顆裡面包香菇、蛋黃、鮮肉的八寶肉包了。\r\n\r\n這顆「鎮店之寶」八寶肉包，從外皮到內餡絲毫不馬乎，外皮不同於一般肉包的軟鬆散一碰到肉汁就糊掉，多年來的西點製作功夫使用手打麵皮，一口咬下會發現不但吸附內餡湯汁，且口感厚實，配上內餡的鹹蛋黃、香菇、五花肉等，一口接一口三兩下就吃光了，不來個 2 個真的不夠過癮！其他像麻辣臭包子口味、打拋豬、紅豆等有都有其愛好者，號稱台南人的包子不為過，是鹹食伴手禮的好選擇。",
            "Address": "台南市中西區開山路122巷10號之2號",
            "Tel": "06-222-2257",
            "Hours": "08:00~21:00",
            "Figure": "fig/TGN-5401-Souvenier-05.jpg",
            "Link": "http://klintainan.com/"
        },
        {
            "NO": "006",
            "Category": "台南",
            "Name": "連得堂餅家",
            "Area": "北區",
            "Description": "如果要說來台南最有價值的伴手禮店，小編覺得就是這家百年的「連得堂餅家」。身處在巷弄裡，依然保有古色古香的木造老宅的面貌，如果沒有看到大家在排隊可能一下就錯過他了，進門最吸引目光的就是自家人正在操作的這台已經失傳的煎餅機器，現做、現賣、一日限購兩包、名符其實的百年老店至今始終如初。",
            "Address": "台南市北區崇安街54號",
            "Tel": "06-225-8429",
            "Hours": "08:00~20:00（週六到18:00，週日到15:00）",
            "Figure": "fig/TGN-5401-Souvenier-06.jpg",
            "Link": "https://www.facebook.com/pages/%E9%80%A3%E5%BE%97%E5%A0%82%E6%9C%89%E9%99%90%E8%82%A1%E4%BB%BD%E5%85%AC%E5%8F%B8/173509316025293"
        },
        {
            "NO": "007",
            "Category": "台南",
            "Name": "進福大灣花生糖",
            "Area": "中西區",
            "Description": "鄰近赤崁樓的「 進福大灣花生糖」，其實發跡於台南永康，至今已傳到了第四代，繼承百年的製糖技術，選用不黏牙的麥芽糖與上選砂糖，天天手工製作現做現賣，費工的美味始終如一。\r\n\r\n除了傳統顆粒花生糖以外，花生捲、黑芝麻糖也必買的，不僅可以單一口味，還可以選擇綜合口味湊在一盒，現場還提供大方的試吃，自己先吃過後再把這份美味帶回去與親朋好友分享吧！",
            "Address": "台南市中西區民族路二段327號",
            "Tel": "06-221-8338",
            "Hours": "09:00~22:00",
            "Figure": "fig/TGN-5401-Souvenier-07.jpg",
            "Link": "https://www.dawan-peanut.com.tw/?lang=zh-TW"
        },
        {
            "NO": "008",
            "Category": "台南",
            "Name": "EVA伊娃日式泡芙專賣店",
            "Area": "中西區",
            "Description": "位於鄭成功文物館旁邊的「EVA伊娃日式泡芙專賣店」，從原本慶中街遷址到這，無意間從門口經過還是會被他唯一的日文招牌「ＥＶＡ シュークリーム」吸引目光，雖然不是百年老店，但營業至今也將近20多個年頭了，純手工製作無法大量生產，因此也算是小限量的伴手禮。這裡的泡芙最令人著迷的就是冰淇淋內餡，配上薄皮的餅皮一口咬下超過癮的，內餡不會溢得亂七八糟，剛好的甜度配上足夠的份量吃完一個就很滿足。",
            "Address": "台南市中西區大埔街47號",
            "Tel": "06-213-5159",
            "Hours": "11:00~19:30（週二公休）",
            "Figure": "fig/TGN-5401-Souvenier-08.jpg",
            "Link": "https://www.facebook.com/2001evapuffs/"
        },
        {
            "NO": "009",
            "Category": "台南",
            "Name": "葡吉麵包店",
            "Area": "北區",
            "Description": "這家「葡吉麵包店」竟然也是台南超強伴手禮？原本也是一家不起眼的無名麵包店，憑著不斷學習的努力，終於製作出每到下午兩點就湧入有如搶福袋般的人潮，來購買這號稱秒殺的羅宋麵包。酥脆的外皮配上紮實的麵團，還有令人難以抗拒的奶油香氣，就是造就一間小麵包店瞬間變成有如美式大賣場景象的重要關鍵。不讓羅宋麵包專美於前，隨後也推出外表像毛毛蟲的奶露麵包，鬆軟的麵包夾入奶油內餡，也是大家爭相購買第二名，大家到這裡都是五個十個的買不要嚇到囉！",
            "Address": "台南市北區成功路200號",
            "Tel": " 06-226-3593",
            "Hours": "08:00~21:30",
            "Figure": "fig/TGN-5401-Souvenier-09.jpg",
            "Link": "https://www.pujeigift.com/"
        },
        {
            "NO": "010",
            "Category": "台南",
            "Name": "美格瑪半熟起司專賣",
            "Area": "中西區",
            "Description": "起司控看過來！「美格瑪半熟起司專賣」使用進口歐美起司及日本進口麵粉與上白糖製作出更多口味，並且用更平價的價格就可以吃到一樣的幸福。\r\n\r\n招牌必點是除了起司塔以外，還有半熟乳酪蛋糕，不同於歐美版的重乳酪起司蛋糕的厚實感，橢圓形綿密細緻的口感就像全熟蛋與半熟蛋的差別，現吃或放冰箱冰鎮後吃都很美味！",
            "Address": "台南市中西區民族路二段220號",
            "Tel": "06-222-0800",
            "Hours": "11:00~19:00",
            "Figure": "fig/TGN-5401-Souvenier-10.jpg",
            "Link": "https://www.twmagma.com.tw/"
        }
    ]