[
        {
            "No": "01",
            "Category": "台南",
            "Area": "永康區",
            "Name": "碳佐麻里",
            "Address": "台南市永康區中華路796號",
            "Tel": "06-203-5599",
            "Hours": "平日11:30AM~24:00PM 假日11:00AM-24:00PM",
            "Description": "台南燒肉最有名的應該是「碳佐麻里」.「碳佐麻里」很適合跟朋友或家人聚餐，因可選擇肉品種類多，燒肉品質好.",
            "Figure": "fig/TGN-5201-Restauran-01.jpg",
            "Link": "https://www.crun.com.tw/menu.php?act=list&cid=1"
        },
        {
            "No": "02",
            "Category": "台南",
            "Area": "東區",
            "Name": "Mo-Mo-Paradise",
            "Address": "台南市東區中華東路一段366號5樓 (南紡購物中心)",
            "Tel": "06-209-9866",
            "Hours": "11:00-22:00",
            "Description": "台南南紡購物中心5F，有一家吃到飽壽喜燒專賣店，店名叫「Mo-Mo-Paradise」，肉品、蔬菜、飲料都無限供應，共有五種鍋品供選擇，也有鴛鴦鍋可以搭配，而且食材新鮮，服務非常好.",
            "Figure": "fig/TGN-5201-Restauran-02.jpg",
            "Link": "https://www.mo-mo.com.tw/"
        },
        {
            "No": "03",
            "Category": "台南",
            "Area": "東區",
            "Name": "YES MARIE 也是瑪莉",
            "Address": "台南東區大學路西段53號2樓",
            "Tel": "06-234-4612",
            "Hours": "11:00-22:00",
            "Description": "「YES MARIE 也是瑪莉」位於成大光復校區附近，是丁每次推薦朋友聚餐的首選餐廳，原因是餐點豐富多樣，有火鍋、義大利麵、泰式料理、焗烤跟甜點，加上距離台南後火車站很近，附近有付費停車場，如果有朋友從外地來台南，就非常適合當聚餐聚會的地點。",
            "Figure": "fig/TGN-5201-Restauran-03.png",
            "Link": "https://www.facebook.com/yesmarietw"
        },
        {
            "No": "04",
            "Category": "台南",
            "Area": "東區",
            "Name": "印度皇宮",
            "Address": "台南市東區中華東路一段366號2樓",
            "Tel": "06-300-6828",
            "Hours": "11:00-15:00、17:00-21:00",
            "Description": "中華東路上台南南紡夢時代有一家專賣印度料理的餐廳，店名叫「印度皇宮」，不愧是運用大量香料聞名的印度菜，香氣逼人啊～而印度皇宮有美味烤餅、濃郁咖哩，餐點都非常有特色",
            "Figure": "fig/TGN-5201-Restauran-04.jpg",
            "Link": "https://www.indiapalace.tw/"
        },
        {
            "No": "05",
            "Category": "台南",
            "Area": "東區",
            "Name": "開普三號店",
            "Address": "台南市東區長榮路三段66巷70號",
            "Tel": "06-208-8911",
            "Hours": "11:00 – 21:00",
            "Description": "台南東區「開普三號店」， 專賣義大利麵、燉飯及限量的法式吐司，除此之外，這裡還有每日限定甜點，每次去都有不同驚喜，另外因為氣氛佳，餐點好吃，這家也是許多人心目中的口袋名單。這裡很適合三五朋友，來這裡聚餐聊天，如果剛好喜歡義大利麵及燉飯，就很推薦來這裡喔！",
            "Figure": "fig/TGN-5201-Restauran-05.jpg",
            "Link": "https://www.facebook.com/%E9%96%8B%E6%99%AE%E4%B8%89%E8%99%9F%E5%BA%97-CAPE-CAFE-3-439555272844579/"
        },
        {
            "No": "06",
            "Category": "台南",
            "Area": "東區",
            "Name": "尖叫精緻炭火燒肉",
            "Address": "台南市東區中華東路一段209號",
            "Tel": "0933-597-232",
            "Hours": "17:30–22:00",
            "Description": "台南吃到飽一定要推薦鄰近南紡購物中心的「尖叫精緻炭火燒肉」，它有讓人瘋狂的活跳跳水道蝦、澎湃海鮮、精緻燒肉及現炒的鐵板燒、熟食及炸物，還有甜點控最愛的Cold Stone冰淇淋，重點是通通吃到飽！服務人員親切、用餐環境舒適",
            "Figure": "fig/TGN-5201-Restauran-06.jpg",
            "Link": "https://www.facebook.com/scream209/"
        },
        {
            "No": "07",
            "Category": "台南",
            "Area": "東區",
            "Name": "花花世界鍋物",
            "Address": "台南市東區莊敬路118號",
            "Tel": "06-208-1849",
            "Hours": "週一～週五11：30-24：00、週六、日11：00-24：00",
            "Description": "台南火鍋「花花世界鍋物」，是近期台南超浮誇火鍋之一，因為它有頂級的生食級海鮮、肉品，飲料無限暢飲，依人數推出的套餐，不管是個人或團體聚會都很適合，重點是美美的南洋風島嶼用餐空間，跟用心佈置的網美打卡區，真的會讓人想一再回訪！",
            "Figure": "fig/TGN-5201-Restauran-07.jpg",
            "Link": "https://www.siktungtainan.com/wswhotpot?fbclid=IwAR1ufcUttnuJLXhaq3kwDVeZemXwsHPmg9u1UKhESYMNeGc8HITlEtPfjgg"
        },
        {
            "No": "08",
            "Category": "台南",
            "Area": "北區",
            "Name": "圓頂西餐廳",
            "Address": "台南市北區成功路202號8樓",
            "Tel": "06-226-1901",
            "Hours": "11:30-14:00、17:30-21:00",
            "Description": "位於成功路的天下大飯店8F，有著在地人都知道的圓頂西餐廳，環境氣氛很好，非常適合約會、慶生、聚餐，午晚餐只要點主餐就能享有無限供應自助吧，重點是每道料理都非常用心及好吃，主餐選擇多樣，價格也不貴，CP值非常高，近期有慶生、聚會需求，千萬不能錯過～",
            "Figure": "fig/TGN-5201-Restauran-08.jpg",
            "Link": "http://www.laplaza.com.tw/cupola.php?lang=tw"
        },
        {
            "No": "09",
            "Category": "台南",
            "Area": "中西區",
            "Name": "Dor,留 手工義大利麵",
            "Address": "台南市中西區友愛街115巷5號之7",
            "Tel": "06-225-8282",
            "Hours": "11:30 – 15:30、17:30 – 21:30",
            "Description": "「Dor,留 手工義大利麵」位於友愛街，是近期非常推薦的聚會餐廳，除了有好吃的手工義大利麵，還有一吃就難忘的披薩，加上餐廳氣氛佳，環境舒適，也很適合情侶約會，首選絕對是「Dor,留 手工義大利麵」，用餐過一次，就會被餐點及服務所驚艷.",
            "Figure": "fig/TGN-5201-Restauran-09.jpg",
            "Link": "https://www.facebook.com/dorstayUIJ"
        },
        {
            "No": "10",
            "Category": "台南",
            "Area": "中西區",
            "Name": "這一小鍋",
            "Address": "台南市中西區中山路162號12樓",
            "Tel": "06-222-0088",
            "Hours": "11:00–14:00、17:00–22:00",
            "Description": "「這一小鍋」的肉片份量多，主餐肉片選擇多樣，雞、豬、牛、羊、海鮮都有，而且湯底有六種可以選擇，對於肉食主義者的丁根本是天堂，但如果想用餐，假日是不能訂位的喔，都要現場等。",
            "Figure": "fig/TGN-5201-Restauran-10.jpg",
            "Link": "https://www.orissic.com/?fbclid=IwAR1mlsmSZkVV-mECHbm21eet96ogLC9lykZ-bGVv5Fr9hcU_SxtAk6uk-JA"
        },
        {
            "No": "11",
            "Category": "台南",
            "Area": "中西區",
            "Name": "福樓",
            "Address": "台南市中西區永華路1段300號",
            "Tel": "06-295-7777 ",
            "Hours": "11:00-14:00 / 17:00-22:30",
            "Description": "榮獲米其林綠色指南推薦餐廳福樓創始店1992年7月23日成立，是台南老字號的品牌，從燒烤攤起家，一直到現在成為台南人每逢佳節或是喜事最先想到的餐廳，原因是福樓擁有琳瑯滿目的四百種菜色，想吃合菜、燒烤、日式料理、川菜、鐵板燒這裡都有，加上食材非常新鮮，海鮮都當日運送，難怪現在經營多年人氣依然不減。",
            "Figure": "fig/TGN-5201-Restauran-11.jpg",
            "Link": "http://www.fulou.com.tw/?fbclid=IwAR1X4FTndvY8kDL2d1uPN62ttnfgvem_21oqu5lFwvf-t-dKbfYaOpkhJms"
        },
        {
            "No": "12",
            "Category": "台南",
            "Area": "中西區",
            "Name": "光影新歐陸料理",
            "Address": "台南市中西區和緯路五段203號",
            "Tel": " 06-350-6886",
            "Hours": "11:00 – 14:00 、15:00 – 22:00（週一僅營業至16:00）",
            "Description": "台南中西區聚餐餐廳一定要推薦「Les Ombres 光影新歐陸料理」，第一次去你就會被它氣派的外觀嚇到，但實際用餐後，你會發現這家餐廳根本是寶藏，它算是餐酒館，所以有很多適合搭配餐點的酒，另外餐點種類豐富又美味，加上店內用餐環境質感又舒適，實在很難不愛上它啊！另外它也有民宿可以入住喔！",
            "Figure": "fig/TGN-5201-Restauran-12.jpg",
            "Link": "https://www.siktungtainan.com/lesombres?fbclid=IwAR0N4ufokImrJGbsK53vlORnG9Xe4AlqEwd9btgGT1-g8wzKpu1WtJA3-cU"
        },
        {
            "No": "13",
            "Category": "台南",
            "Area": "中西區",
            "Name": "有你真好火鍋沙龍",
            "Address": "台南市中西區民生路二段175號",
            "Tel": " 06-223-3598",
            "Hours": "11:30 – 1:00",
            "Description": "台南中西區火鍋店「有你真好火鍋沙龍」，有著極富質感的裝潢及內用空間，還有六種簡單卻不平凡的湯底，及多樣化的肉品、甜點、新鮮食材，整體氛圍及美食都非常適合聚餐、約會，而且營業到凌晨一點，夜貓族也可以吃！雖然價格偏高，但仍然會讓人想再二訪，這麼特別及漂亮的火鍋店，一定要來嚐鮮看看喔！",
            "Figure": "fig/TGN-5201-Restauran-13.jpg",
            "Link": "https://www.facebook.com/itsgoodtohaveyou/"
        },
        {
            "No": "14",
            "Category": "台南",
            "Area": "北區",
            "Name": "悠然居生活茶坊",
            "Address": "台南市北區立賢路一段51號",
            "Tel": "06-283-3000",
            "Hours": "10:30-3:00",
            "Description": "台南北區「悠然居生活茶坊」，採全包廂式的座位，適合與三五好友聚會的好去處，加上營業至凌晨三點，也造福不少夜貓族，而且悠然居生活茶坊提供的餐點十分豐富，像是火鍋、簡餐、義大利麵跟飲品通通都有，如果想找個既可以聊天又可以吃吃喝喝的地方，那麼悠然居生活茶坊就非常適合喔！",
            "Figure": "fig/TGN-5201-Restauran-14.jpg",
            "Link": "https://www.facebook.com/%E6%82%A0%E7%84%B6%E5%B1%85-218389081505241/"
        },
        {
            "No": "15",
            "Category": "台南",
            "Area": "北區",
            "Name": "尼法法式餐廳",
            "Address": "台南市北區東豐路111號",
            "Tel": "06-236-5880",
            "Hours": "12:00 - 14:30, 18:00 - 22:00",
            "Description": "尼法的裝潢可以說是比較復古, 可以看得出一點歷史, 但環境乾淨優雅, 會比較有點傳統的味道, 不過我覺得還不錯, 不管是服務生還是整個氛圍都給人一種放鬆安靜的心情,但尼法的菜單卻有一整頁的午餐套餐價錢都是1000以內, 也問過服務生餐點內容, 光是聽就物超所值, 如果想吃法餐但又不想花太多預算, 或是商務需要用餐, 真的都很不錯",
            "Figure": "fig/TGN-5201-Restauran-15.jpg",
            "Link": "https://www.facebook.com/Nephi111/"
        },
        {
            "No": "16",
            "Category": "台南",
            "Area": "中西區",
            "Name": "美。食光Lumière",
            "Address": "\r\n台南市台南市中西區忠義路2段1號五樓",
            "Tel": "06-223-3288",
            "Hours": "週二至週五AM11:30-PM21:00,週六、週日AM11:00-PM21:00",
            "Description": "隱身於南美館二館五樓的「LUMIÈRE美．食光」餐酒館，正是奇美食品旗下經營的餐廳之一，說它是最美的玻璃屋景觀餐廳可是一點也不為過!「LUMIÈRE美．食光」不僅擁有南美館二館最佳視野，每個座位區隨著不同光影的變化，所欣賞到的視野觀感都不一樣，從白天到夜晚變幻無窮的氛圍更是讓人著迷啊!這裡餐點以「分享」為主題，除了招牌的爐烤安格斯肋眼牛排非常受歡迎之外，並將在地的台南味融入餐點中，像是台南的肉燥飯、蝦仁飯、膨風豆、冬瓜茶、牛肉湯等小吃，巧妙地融入在西菜中，其中的創意與巧思讓人吃起來相當驚喜!這裡的無酒精調飲與調酒也非常特別，很適合三五好友、情侶夫妻、家庭聚餐或同事一起來吃飯小酌，保證也能吃得飽足又滿足!",
            "Figure": "fig/TGN-5201-Restauran-16.jpg",
            "Link": "http://www.lumiere.com.tw/?fbclid=IwAR0r7xlVY6Ys5VBwr0q8bEAGOs-FB2CG1FENVrcwmYzrWFrLF6ZIJx65oq4"
        }
    ]