[
        {
            "NO": "01",
            "Name": "赤崁樓",
            "Category": "台南",
            "Area": "中西區",
            "Description": "赤嵌樓可說是台南中西區內最主要的古蹟建築，與安平的安平古堡是台南的兩大明星，1652年荷蘭人在此建立普羅民遮城，至此奠定了台南行政商業中心的位置，歷經300多年來幾經整修改建，始有現今的樣貌，內有海神廟、文昌閣及蓬壺書院，外圍草皮上立著國姓爺受降的雕像，總是讓國內外遊客仔細端詳，遙想著當年國姓爺的英姿煥發，最吸引目光的莫過於移自大南門城邊的9塊御碑，由狀似石龜的贔屭所乘載，傳說贔屭為九龍生子之一，生性喜歡負重，也因為贔屭而讓赤嵌樓增添不少傳說故事，至今仍讓人津津樂道。",
            "Address": "臺南市中西區民族路二段212號",
            "Tel": "+886-6-2205647",
            "Hours": "8：30至17：30\r\n(週一公休)",
            "Figure": "fig/ISL-3104-TainanGuide-01.jpeg",
            "Link": "https://www.twtainan.net/zh-tw/attractions/detail/674"
        },
        {
            "NO": "02",
            "Name": "河樂廣場",
            "Category": "台南",
            "Area": "中西區",
            "Description": "河樂廣場為原中國城舊址，曾是台南重要的商圈之一，經拆除後改建為親水公園，於2020年3月7日開幕，為台南市區最大的親水廣場，更曾被富比世雜誌譽為「全世界最值得期待的七大公園」之一。\r\n\r\n公園內特意保留部分中國城遺構，並規劃拆除回填展示區，讓民眾了解其曾歷經台南府城最繁華的運河碼頭、中國城的興衰，直至今日蛻變為親水公園，成為一個具有歷史足跡的場所。河樂廣場寓意為西起環河街、東至康樂街，由兩條街各取一字組合而成，河樂音同「和樂」，寓意「闔家歡樂」，是適合親子同遊的戲水場域。",
            "Address": "臺南市中西區中正路343號",
            "Hours": " 周二休園",
            "Figure": "fig/ISL-3104-TainanGuide-02.jpeg",
            "Link": "https://www.twtainan.net/zh-tw/attractions/detail/5996"
        },
        {
            "NO": "03",
            "Name": "台江國家公園",
            "Category": "台南",
            "Area": "安南區",
            "Description": "位於臺南市四草大道北側與鹽水溪間的四草魚塭區，於105年1月13日正式啟用，除保留既有地景地貌外，並透過「高腳屋」的構造形式，避免大規模地景破壞，園區內設置連通水路，串聯各自獨立漁塭，並銜接至鄰近嘉南大圳水系，形成自然感潮水體，以活絡水質，提供浮游生物、魚、蝦、貝類等生物優質棲息水域環境，是遊客近距離觀察魚塭生態系最佳場域。",
            "Address": "臺南市安南區四草大道118號",
            "Tel": " 06-2842600",
            "Hours": "9:00~17:00\r\n休館日:每週一",
            "Figure": "fig/ISL-3104-TainanGuide-03.jpeg",
            "Link": "https://www.twtainan.net/zh-tw/attractions/detail/5812"
        },
        {
            "NO": "06",
            "Name": "菁寮老街",
            "Category": "台南",
            "Area": "後壁區",
            "Description": "從台1線轉進菁寮，首先映入眼簾的就是造型特殊，由普立茲克建築獎得主－佛萊德．波姆(Gottfried Bohm)在1966年設計的菁寮天主堂，在菁寮一片綠色的田野間，天主堂銀色的外觀特別耀眼，形成一種有趣的地景對比。\r\n\r\n菁寮天主堂有位來自法國南方的韋神父，在此已傳教多年，入鄉隨俗的只會說台語，可以說是全世界台語最溜的法國人了，逢年過節還會在天主堂寫春聯送給來訪的人，是到菁寮天主堂一定要拜訪的人物。目前天主堂入內參觀採預約制，且進入內部不可拍照，也請尊重宗教信仰的規範，請勿在教堂內部喧嘩嬉鬧。 ",
            "Address": "臺南市後壁區菁寮墨林里294-1號",
            "Tel": "+886-6-6361881",
            "Hours": "週六&國定假日:14:00~16:00、 週日:10:00-11:00、14:00~16:00\r\n",
            "Figure": "fig/ISL-3104-TainanGuide-06.jpeg",
            "Link": "https://twtainan.net/zh-tw/attractions/detail/501"
        },
        {
            "NO": "07",
            "Name": "台南美術館 2館",
            "Category": "台南",
            "Area": "中西區",
            "Description": "由石昭永建築師及日本坂茂建築設計事務所共同打造，是由普立茲克建築獎得主所規劃設計的建築物。建築本體以鳳凰花為發想概念，五角形的外型將使南美館成為一座象徵臺南的文化地標，垂直錯落堆疊的展示空間，結合大型碎形屋頂，構成南美館2館的主要外型。",
            "Address": "臺南市中西區忠義路二段1號",
            "Tel": "06-2218881",
            "Hours": "▴每週二~週五&週日10:00~18:00\r\n▴每週六10:00~21:00\r\n▴每週一休館",
            "Figure": "fig/ISL-3104-TainanGuide-07.jpeg",
            "Link": "https://www.twtainan.net/zh-tw/attractions/detail/5533"
        },
        {
            "NO": "08",
            "Name": "山上水道花園博物館",
            "Category": "台南",
            "Area": "山上區",
            "Description": "孩童的歡鬧聲隨著水花飛濺此起彼落，這是一幅背景為翠綠大地的畫布，灑滿金燦陽光、盛滿五彩鮮花。走進這座花園深處，紅磚色的屋房現身，頂著灰黑色的斜瓦，敞開大門迎接來客，體會過世外的繽紛歡樂，再安靜地閱讀斑駁的水道歷史痕跡。",
            "Address": "臺南市山上區山上里山上16號",
            "Tel": " 06-5781900",
            "Hours": " ▴ 每日 9:30~17:30，16:30後停止售票。\r\n▴ 每週二休園",
            "Figure": "fig/ISL-3104-TainanGuide-08.jpeg",
            "Link": "https://www.twtainan.net/zh-tw/attractions/detail/5816"
        },
        {
            "NO": "09",
            "Name": "十鼓仁糖文創園區",
            "Category": "台南",
            "Area": "仁德區",
            "Description": "十鼓仁糖文創園區佔地約5公頃 ，共有16座日治時代所建築之舊倉庫，2005年由十鼓接手重新規劃，以活化閒置空間的概念，在精心規劃下，將閒置多年已有近百年歷史的仁德車路墘糖廠賦予新的風貌，讓糖廠風華重現，並融入十鼓獨創的台灣特色鼓樂，是亞洲第一座鼓樂主題的國際藝術村。",
            "Address": "臺南市仁德區文華路二段326號",
            "Tel": "+886-6-2662225",
            "Hours": " 日間開放\r\n每日 9:30~17:00\r\n夜間開放\r\n周二~周五：18:00~20:00\r\n六日：18:00~20:30",
            "Figure": "fig/ISL-3104-TainanGuide-09.jpeg",
            "Link": "https://www.twtainan.net/zh-tw/attractions/detail/816"
        },
        {
            "NO": "10",
            "Name": "奇美博物館",
            "Category": "台南",
            "Area": "仁德區",
            "Description": "當看到這樣的景象，會以為這是歐洲某處宮殿的景致吧，走過陽光下映著彩虹的阿波羅噴泉，穿過護城河上的橋墩，勇猛優雅的白色獅頭一字排開，橋面上莊嚴的奧林帕斯眾神也整齊陳列，走過橋面，博物館正面入口採高聳的圓頂造型及各面不同的希臘列柱設計，這樣的氣勢更能襯托出典藏寶物宮殿的華麗，安置於博物館建築物最高點的「榮耀天使」雕塑，是臨摹法國雕塑家路易‧巴里亞斯(Louis-Ernest Barrias)的作品，這座手持桂冠和號角的榮耀天使，將永遠佇立於奇美館建築的最頂端，象徵守護這塊土地，榮耀世間的美好人事物。",
            "Address": "臺南市仁德區文華路二段66號",
            "Tel": " +886-6-2660808",
            "Hours": " ▴周三休館\r\n▴戶外園區 9:00－18:30（免費自由參觀）\r\n▴奇美博物館 9:30－17:30",
            "Figure": "fig/ISL-3104-TainanGuide-10.jpeg",
            "Link": "https://www.twtainan.net/zh-tw/attractions/detail/572"
        },
        {
            "NO": "11",
            "Name": "四草綠色隧道",
            "Category": "台南",
            "Area": "安南區",
            "Description": "兩旁的紅樹林向中央生長齊聚，交織出茂密的半圓綠頂，一層一層的向前方疊出深邃的廊道，不知盡頭而顯得神秘，四草綠隧也因此有了小亞馬遜之稱。國內外遊客紛至沓來，長長的等候為得是乘上通往這座仙境的管筏，隨著波紋緩緩前行，微風掠過輕撫臉頰，承載陽光溫暖的重量，穿梭在這座城市秘境裡",
            "Address": "臺南市安南區顯草街一段",
            "Tel": " +886-6-2841610",
            "Hours": " ▴夏令時段（清明假期後至白露）：早上8：30至下午5：00\r\n▴冬令時段（白露後至清明假期）：早上8：00至下午4：30",
            "Figure": "fig/ISL-3104-TainanGuide-04.jpeg",
            "Link": "https://www.twtainan.net/zh-tw/attractions/detail/1324"
        },
        {
            "NO": "12",
            "Name": "安平老街",
            "Category": "台南",
            "Area": "安平區",
            "Description": "有著台灣第一街稱號的安平老街，是300多年前荷蘭人在安平建立的第一條街道，早期街道的設計都僅供人與推車通行，因此街廓並不是很寬。許多遊客來到安平也都必然進到這條古老的街道，擁擠熱鬧的人潮是安平老街的常態，似乎不這樣也不像安平老街，街上各式老店林立，不管是國內外遊客總在老街上穿梭尋寶，偶而抬頭看看街道上的老屋還能發現幾尊安座在屋頂的風獅爺，或是在門楣上的劍獅，也是走逛安平老街的樂趣。老街上還有許多條穿梭安平各處的小徑，每穿過一條小徑都有不同的風景，有茉莉巷，有胭脂巷等等，區域內也保留許多老式聚落，走在靜謐的巷弄裡面有如時光倒流一般，錯綜複雜的小巷也頗有探險的感覺，來到安平老街如果沒有走進巷弄的話就真的太可惜了。",
            "Address": "臺南市安平區延平街",
            "Hours": "全日開放",
            "Figure": "fig/ISL-3104-TainanGuide-12.jpeg",
            "Link": "https://www.twtainan.net/zh-tw/attractions/detail/812"
        },
        {
            "NO": "13",
            "Name": "錢來也雜貨店",
            "Category": "台南",
            "Area": "北門區",
            "Description": "大家一定都記得膾炙人口的偶像劇王子變青蛙，當初偶像劇的拍攝場景就在錢來也雜貨店，當時成了不少影迷爭相朝聖的地標，建於1952年的台鹽鹽工福利社，是一棟傳統斜瓦平房是早期提供鹽工購買日常用品的場所及育樂中心，直到2001年北門鹽場停業才被閒置，2003年的空間再造，讓這棟歷史悠久且具在地產業代表性的老屋煥然一新，牆壁利用當地廢棄的鹽田瓦片、貝殼、蚵殼舖滿整棟屋子牆面，外圍院子也掛了不少貝殼及浮球等裝飾，讓錢來也雜貨店還有個很海洋風的名稱「貝殼屋」，改造完成後委由廠商管理，讓錢來也雜貨店恢復往常的榮景，內部販售的各式古早味零食及在地風格的紀念文創商品，是許多遊客來到北門後一定會去採買逛逛的地方。",
            "Address": "臺南市北門區舊埕187號",
            "Hours": " 平日︰10:00~18:00；假日︰09:00~18:00",
            "Figure": "fig/ISL-3104-TainanGuide-13.jpeg",
            "Link": "https://www.twtainan.net/zh-tw/attractions/detail/639"
        },
        {
            "NO": "14",
            "Name": "井仔腳瓦盤鹽田",
            "Category": "台南",
            "Area": "北門區",
            "Description": "「井仔腳瓦盤鹽田」是北門的第一座鹽田，也是現存最古老的瓦盤鹽田遺址，原為清領時期的瀨東鹽場，1818年遷此至今未再移位，而且清一色為瓦盤鹽田，呈現出馬賽克拼貼般的美麗藝術，後因人工成本過高的原因，於2002年結束了長達338年的曬鹽業，使原來遍布此處的鹽田荒廢了一段時間，後來為延續鹽業文化而將鹽場復育，現已成為台南濱海最具特色的景點。",
            "Address": "臺南市北門區永華里井仔腳興安宮旁",
            "Tel": "+886-6-7861629",
            "Hours": "▴ 夏令時間(五月-十月): 09:30-18:00\r\n▴ 冬令時間(十一月-四月): 09:00-17:30",
            "Figure": "fig/ISL-3104-TainanGuide-14.jpeg",
            "Link": "https://www.twtainan.net/zh-tw/Attractions/Detail/587/"
        },
        {
            "NO": "15",
            "Name": "海安路裝置藝術",
            "Category": "台南",
            "Area": "中西區",
            "Description": "近年來，海安路已成了台南夜晚最熱鬧的徒步藝術區，兩旁保留著道路拓寬而將房屋半拆除的頹景，鋼筋外露、磚瓦斑駁。由知名策展人杜昭賢的大力號召，結合數十位藝術家利用地形地貌，重新創造設計各式風格的公共藝術，將街道轉變成最獨特的美術館。透過燦爛燈光的投射，海安路搖身一變成了夜晚最美麗的一顆星。手拉著手，漫步在寬大的灰白步道上。用心、用眼、用相機捕捉美麗夜色。",
            "Address": "臺南市中西區海安路",
            "Tel": "+886-6-2267151",
            "Hours": "全天候開放",
            "Figure": "fig/ISL-3104-TainanGuide-15.jpeg",
            "Link": "https://www.twtainan.net/zh-tw/attractions/detail/1345"
        },
        {
            "NO": "16",
            "Name": "藍晒圖文創園區",
            "Category": "台南",
            "Area": "南區",
            "Description": "自從海安路上的藍晒圖消失之後，現在於前身為舊司法宿舍的區域內進化為3D的藍晒圖，夜晚打了燈，光彩奪目的白色線條在藍色的牆面上四射出來，加上一旁打著黃色燈光的老樹，成了台南夜間的亮點，面對著新光三越百貨台南新天地的藍晒圖文創園區，自從開幕後一直都是年輕族群聚集人潮滿滿的熱門景點，裡面的文創特色小店各有值得探訪之處，公共區域內的彩繪牆與藝術裝置更是園區內的拍照熱區，吸引著許多人在裡面流連忘返。",
            "Address": "臺南市南區西門路一段689巷",
            "Tel": "+886-6-6321047#1111",
            "Hours": "開放時間依園區各店家為主",
            "Figure": "fig/ISL-3104-TainanGuide-16.jpeg",
            "Link": "https://www.twtainan.net/zh-tw/attractions/detail/740"
        },
        {
            "NO": "17",
            "Name": "神農街",
            "Category": "台南",
            "Area": "中西區",
            "Description": "從清朝時代起就是台南五條港區域的重要河港入口，當時的商賈都從這條街上進出台南，是當時最熱鬧的的區域，歷史有趣的地方又來了，經過百年演變，原本的河港現在成為都市裡的道路。\r\n\r\n原本已經因為老舊而沒落的街道，近幾年成為文創藝術的集散地，台南人有時會戲稱神農街為文青聖地，街道兩旁的店都充斥濃濃的手作風格，而且為了維持原創性，大多數店家內都不可以拍照，請多留意店家的規範，因為神農街內的每家小店舖絕對值得每個來台南的人好好細細的看一回，絕對不只是在街上走一趟就過了，一定要進每家店看看。",
            "Address": "臺南市中西區神農街",
            "Tel": "+886-6-2267151",
            "Hours": "24 小時營業",
            "Figure": "fig/ISL-3104-TainanGuide-17.jpeg",
            "Link": "https://www.twtainan.net/zh-tw/attractions/detail/1351"
        },
        {
            "NO": "18",
            "Name": "林百貨",
            "Category": "台南",
            "Area": "中西區",
            "Description": "林百貨(ハヤシ百貨)台南人俗稱五棧樓仔(Gō͘-chàn-lâu-á)，是日本山口縣人林方一投資，1931年由當時任臺南州地方技師兼臺灣建築會臺南州支部長的梅澤捨次郎設計，屬末廣町「店鋪住宅速成會」街屋中最大的一間，1932年完工落成，12月5日開幕，投資人林方一卻不幸在開幕前因病過世，林百貨僅比全台第一家百貨公司菊元(台北，建築已拆除)晚一週開幕。\r\n1945年太平洋戰爭結束，林百貨因為鄰近市區政經中心因而受到轟炸波及，戰後數年，改制後的台灣製鹽總廠(後改為台鹽實業)與「鹽務警察」共用林百貨做為辦公處所，頂樓則作為防空戰備之用，1977年(民國66年)，鹽警因為鹽稅停徵後，鹽警改制為保三總隊，全棟大多為台鹽所使用，後來辦公處遷往健康路台鹽現址。1998年(民國87年)，林百貨才被列為市定古蹟，並於2013年中修護完成。",
            "Address": "台南市中西區忠義路二段18-30",
            "Tel": "+886-221-3000",
            "Hours": "11:00 - 21:00",
            "Figure": "fig/ISL-3104-TainanGuide-18.jpeg",
            "Link": "http://www.hayashi.com.tw/page.asp?nsub=A8A000&lang=C"
        },
        {
            "NO": "19",
            "Name": "台南文創園區",
            "Category": "台南",
            "Area": "東區",
            "Description": "走出台南火車站後右轉，就會見到一棟非常美麗的紅色建築在藍天底下，後方襯托著高聳的香格里拉飯店大樓，成為台南新舊融合的最佳代表景觀。此處原為台灣總督府專賣局台南支局台南出張所，整修過後成為台南文化創意產業園區，讓嚴肅的古蹟建築變身成遊客民眾的好去處。出張所本體為古色古香的展場，常有不同展覽展出，也是產業媒合及藝文人才互動交流平台，不定時舉辦各種主題講座，也讓許多親子檔常到園區裡看火車吃點心、參與DIY手作課程，度過親子時光，是一個實踐生活美學與慢活態度的絕佳場域。",
            "Address": "臺南市東區北門路二段16號",
            "Tel": "886-6-222-2681",
            "Hours": "24 小時營業",
            "Figure": "fig/ISL-3104-TainanGuide-19.jpeg",
            "Link": "https://b16tainan.com.tw/"
        },
        {
            "NO": "20",
            "Name": "台南公園",
            "Category": "台南",
            "Area": "北區",
            "Description": "已有百年歷史的台南公園最為人津津樂道的就是流傳已久的燕潭曉月，形容月亮高掛天空時，猶如明月落在燕潭的倒映美景。每天從早到晚都有不少遊客在潭邊散步運動或是約會談情，假日時潭邊更是許多親子嬉戲的場所，也是攝影留念的最佳取景點，是許多台南人與遊客對台南的共同印象。\r\n\r\n2017年為慶祝台南公園1百周年，特地請來日本知名庭園大師修復瀑布景觀，擁有濃濃的日式風情，瀑布流水周邊有著充滿綠意的蟲鳴鳥叫，重現百年前的優雅風情，加上一旁以咾咕石為牆面，紅色屋頂與可愛圓窗造型，有如歐洲小屋的台南公園管理所，以及公園內各處繽紛的造景充滿歷史氛圍的造景，實在令人流連忘返。",
            "Address": "臺南市北區公園路356號",
            "Tel": "+886-6-2982801",
            "Hours": "24 小時營業",
            "Figure": "fig/ISL-3104-TainanGuide-20.jpeg",
            "Link": "https://www.twtainan.net/zh-tw/attractions/detail/715"
        },
        {
            "NO": "21",
            "Name": "安平樹屋",
            "Category": "台南",
            "Area": "安平區",
            "Description": "樹屋位於德記洋行後面，原是德記洋行的倉庫，大約建於十九世紀末及日治初期，此處曾做為「大日本鹽業株式會社」出張所倉庫，現況規模即為日本人增建。\r\n\r\n經百餘年歲月滄桑後，倉庫牆面滿佈榕樹盤據的氣根，高聳的榕樹茂密的樹冠彷彿成為倉庫的屋頂，也讓安平樹屋擁有難得一見的外觀及神秘氣息，形成特有的屋樹共生奇景，類似吳哥窟大樹盤纏著「塔普倫寺」。\r\n\r\n現今內有規劃完善的木棧道讓人穿梭於樹屋之間，也可往上穿梭在樹冠之中，常可見許多的松鼠與鳥類在樹冠間嬉戲，生態良好。走累了就近到樹屋園區內的樹屋咖啡休息，來支冰淇淋消暑，繼續探索安平的優美。​",
            "Address": "臺南市安平區古堡街108號旁",
            "Tel": "+886-6-3913901",
            "Hours": "08:30 – 17:30",
            "Figure": "fig/ISL-3104-TainanGuide-21.jpeg",
            "Link": "https://www.twtainan.net/zh-tw/attractions/detail/806"
        },
        {
            "NO": "22",
            "Name": "大魚的祝福",
            "Category": "台南",
            "Area": "安平區",
            "Description": "與林默娘公園相依，連成安平港水岸綠帶，港濱歷史公園自東入口一路向西，搭建一條歷史的時光長廊，用石碑文字訴說府城故事。這裡充斥孩童與狗兒的嘻笑歡鬧，也圍繞閱讀歷史的文人靜默，夕陽西下的景色令人陶醉，從大魚的口中，眺望澄黃沉靜的水面。\r\n\r\n大魚獻上的祝福\r\n大魚的魚腹是平滑的白色曲線，進入魚肚走上二樓，藍色三角網起的魚背籠罩眾人，向外延伸自尾鰭輕輕揚起，口中央以448片彩色釉燒玻璃拼湊出台灣島嶼，象徵愛與包容的台灣浮出水面，接納不同時代的來客。",
            "Address": "臺南市安平區港濱歷史公園(安億橋邊安億路旁)",
            "Tel": "886-6-633-4905",
            "Hours": "24 小時營業",
            "Figure": "fig/ISL-3104-TainanGuide-22.jpeg",
            "Link": "https://www.twtainan.net/zh-tw/attractions/detail/5625"
        },
        {
            "NO": "23",
            "Name": "德陽艦園區",
            "Category": "台南",
            "Area": "安平區",
            "Description": "以「德陽艦」為主角的軍艦博物館，是安平港最吸睛的焦點，也是全台唯一的軍艦博物館。在台服役近30年的德陽艦，於2009年卸下保衛國家的使命，正式停泊安平海港並轉型成為賦予教育意義的軍艦博物館，不但是軍事迷的遊覽勝地，霸氣船身造型也成為知名拍照景點。",
            "Address": "臺南市安平區安億路115號",
            "Tel": "886-6-29-32925",
            "Hours": "09:00 – 18:00",
            "Figure": "fig/ISL-3104-TainanGuide-23.jpeg",
            "Link": "https://www.twtainan.net/zh-tw/attractions/detail/5516"
        },
        {
            "NO": "24",
            "Name": "億載金城",
            "Category": "台南",
            "Area": "安平區",
            "Description": "億載金城又名「二鯤鯓砲台」，是一個四方型四周有稜堡且有護城河圍繞的紅色城堡，中央處的草皮則是當時用來操練士兵的所在地，從地圖上看是一個非常勻稱的菱形設計，隨著歷史演進，億載金城已失去軍事據點的作用，轉變為相當受歡迎的景點，假日偶有穿著清兵服裝的工作人員在砲台上演練著砲操，有如時光倒流的場景讓許多遊客驚喜不已，三-四月周邊黃花風鈴木盛開時更是絕美，常可見遊客踩踏著天鵝船在護城河中緩緩前進，與生活在此的野鴨及天鵝一同在水域裡嬉戲著。",
            "Address": "臺南市安平區光州路3號",
            "Tel": " +886-6-2951504",
            "Hours": "08:30 – 17:30",
            "Figure": "fig/ISL-3104-TainanGuide-24.jpeg",
            "Link": "https://www.twtainan.net/zh-tw/attractions/detail/673"
        },
        {
            "NO": "25",
            "Name": "觀夕平台",
            "Category": "台南",
            "Area": "安平區",
            "Description": "位於安平港國家歷史風景區內的觀夕平台是近年相當熱門的景點，三角形的平台與兩側的防風林營造出綠意盎然的景色，平台前就是湛藍的海洋美景，午後時分常見家庭帶著小孩在沙灘上玩沙放風箏，或是三兩好友捲起褲管沿著岸邊踏浪，夕陽黃昏時天空雲彩變化是最多人佇足的時候。\r\n\r\n觀夕平台的低光源走廊設計，讓這裡不僅白天可以欣賞海景，夜間光害少也讓天空中閃耀的點點星辰顯現出來，每當流星雨報到時也是熱門的觀星場所之一。",
            "Address": "臺南市安平區四草大橋南端步行約100M",
            "Tel": "+886-6-2281382",
            "Hours": "24 小時營業",
            "Figure": "fig/ISL-3104-TainanGuide-25.jpeg",
            "Link": "https://www.twtainan.net/zh-tw/attractions/detail/810"
        }
    ]